{"type":"FeatureCollection","features":[{"type":"Feature","properties":{"OBJECTID":1,"STOPID":97,"STOPCODE":97,"STOPNAME":"Papakura Train Station","STOPDESC":null,"LOCATIONTYPE":"Stop","STOPLAT":-37.06429361,"STOPLON":174.94611444,"PARENTSTATION":null,"MODE":"Train"},"geometry":{"type":"Point","coordinates":[1773020.8913000005,5896223.8819]}},{"type":"Feature","properties":{"OBJECTID":2,"STOPID":98,"STOPCODE":98,"STOPNAME":"Manurewa Train Station","STOPDESC":null,"LOCATIONTYPE":"Stop","STOPLAT":-37.02326778,"STOPLON":174.89617083,"PARENTSTATION":null,"MODE":"Train"},"geometry":{"type":"Point","coordinates":[1768670.9439000003,5900865.5112]}},{"type":"Feature","properties":{"OBJECTID":3,"STOPID":99,"STOPCODE":99,"STOPNAME":"Homai Train Station","STOPDESC":null,"LOCATIONTYPE":"Stop","STOPLAT":-37.01346333,"STOPLON":174.87467,"PARENTSTATION":null,"MODE":"Train"},"geometry":{"type":"Point","coordinates":[1766779.6168,5901991.2293]}},{"type":"Feature","properties":{"OBJECTID":4,"STOPID":100,"STOPCODE":100,"STOPNAME":"Papatoetoe Train Station","STOPDESC":null,"LOCATIONTYPE":"Stop","STOPLAT":-36.97766639,"STOPLON":174.84925,"PARENTSTATION":null,"MODE":"Train"},"geometry":{"type":"Point","coordinates":[1764595.0762,5906007.136]}},{"type":"Feature","properties":{"OBJECTID":5,"STOPID":101,"STOPCODE":101,"STOPNAME":"Otahuhu Train Station","STOPDESC":null,"LOCATIONTYPE":"Stop","STOPLAT":-36.94669472,"STOPLON":174.83321,"PARENTSTATION":null,"MODE":"Train"},"geometry":{"type":"Point","coordinates":[1763233.4084,5909471.0016]}},{"type":"Feature","properties":{"OBJECTID":6,"STOPID":102,"STOPCODE":102,"STOPNAME":"Penrose Train Station","STOPDESC":null,"LOCATIONTYPE":"Stop","STOPLAT":-36.91009167,"STOPLON":174.8157,"PARENTSTATION":null,"MODE":"Train"},"geometry":{"type":"Point","coordinates":[1761751.4765,5913561.8751]}},{"type":"Feature","properties":{"OBJECTID":7,"STOPID":103,"STOPCODE":103,"STOPNAME":"Glen Innes Train Station","STOPDESC":null,"LOCATIONTYPE":"Stop","STOPLAT":-36.87880056,"STOPLON":174.85412,"PARENTSTATION":null,"MODE":"Train"},"geometry":{"type":"Point","coordinates":[1765241.9206999997,5916967.6929]}},{"type":"Feature","properties":{"OBJECTID":8,"STOPID":104,"STOPCODE":104,"STOPNAME":"Morningside Train Station","STOPDESC":null,"LOCATIONTYPE":"Stop","STOPLAT":-36.874985,"STOPLON":174.73521,"PARENTSTATION":null,"MODE":"Train"},"geometry":{"type":"Point","coordinates":[1754651.2352999998,5917590.3007]}},{"type":"Feature","properties":{"OBJECTID":9,"STOPID":105,"STOPCODE":105,"STOPNAME":"Avondale Train Station","STOPDESC":null,"LOCATIONTYPE":"Stop","STOPLAT":-36.89714083,"STOPLON":174.69910472,"PARENTSTATION":null,"MODE":"Train"},"geometry":{"type":"Point","coordinates":[1751389.3038999997,5915190.1179]}},{"type":"Feature","properties":{"OBJECTID":10,"STOPID":106,"STOPCODE":106,"STOPNAME":"Takanini Train Station","STOPDESC":null,"LOCATIONTYPE":"Stop","STOPLAT":-37.04112417,"STOPLON":174.91945,"PARENTSTATION":null,"MODE":"Train"},"geometry":{"type":"Point","coordinates":[1770701.9316999996,5898842.787]}},{"type":"Feature","properties":{"OBJECTID":11,"STOPID":107,"STOPCODE":107,"STOPNAME":"Te Mahia Train Station","STOPDESC":null,"LOCATIONTYPE":"Stop","STOPLAT":-37.03118167,"STOPLON":174.906095,"PARENTSTATION":null,"MODE":"Train"},"geometry":{"type":"Point","coordinates":[1769536.2258,5899969.8129]}},{"type":"Feature","properties":{"OBJECTID":12,"STOPID":109,"STOPCODE":109,"STOPNAME":"Middlemore Train Station","STOPDESC":null,"LOCATIONTYPE":"Stop","STOPLAT":-36.96304139,"STOPLON":174.83896861,"PARENTSTATION":null,"MODE":"Train"},"geometry":{"type":"Point","coordinates":[1763711.2106999997,5907647.4842]}},{"type":"Feature","properties":{"OBJECTID":13,"STOPID":112,"STOPCODE":112,"STOPNAME":"Ellerslie Train Station","STOPDESC":null,"LOCATIONTYPE":"Stop","STOPLAT":-36.89847417,"STOPLON":174.80811111,"PARENTSTATION":null,"MODE":"Train"},"geometry":{"type":"Point","coordinates":[1761099.7906999998,5914863.6471]}},{"type":"Feature","properties":{"OBJECTID":14,"STOPID":113,"STOPCODE":113,"STOPNAME":"Greenlane Train Station","STOPDESC":null,"LOCATIONTYPE":"Stop","STOPLAT":-36.88965722,"STOPLON":174.79741944,"PARENTSTATION":null,"MODE":"Train"},"geometry":{"type":"Point","coordinates":[1760165.5209999995,5915859.861]}},{"type":"Feature","properties":{"OBJECTID":15,"STOPID":114,"STOPCODE":114,"STOPNAME":"Remuera Train Station","STOPDESC":null,"LOCATIONTYPE":"Stop","STOPLAT":-36.88138333,"STOPLON":174.78542028,"PARENTSTATION":null,"MODE":"Train"},"geometry":{"type":"Point","coordinates":[1759113.369,5916797.8944]}},{"type":"Feature","properties":{"OBJECTID":16,"STOPID":115,"STOPCODE":115,"STOPNAME":"Newmarket Train Station","STOPDESC":null,"LOCATIONTYPE":"Stop","STOPLAT":-36.86972028,"STOPLON":174.77883361,"PARENTSTATION":null,"MODE":"Train"},"geometry":{"type":"Point","coordinates":[1758550.4390000002,5918102.8262]}},{"type":"Feature","properties":{"OBJECTID":17,"STOPID":116,"STOPCODE":116,"STOPNAME":"Orakei Train Station","STOPDESC":null,"LOCATIONTYPE":"Stop","STOPLAT":-36.86242667,"STOPLON":174.8095,"PARENTSTATION":null,"MODE":"Train"},"geometry":{"type":"Point","coordinates":[1761299.3778,5918860.649]}},{"type":"Feature","properties":{"OBJECTID":18,"STOPID":117,"STOPCODE":117,"STOPNAME":"Meadowbank Train Station","STOPDESC":null,"LOCATIONTYPE":"Stop","STOPLAT":-36.86631972,"STOPLON":174.82075,"PARENTSTATION":null,"MODE":"Train"},"geometry":{"type":"Point","coordinates":[1762294.0642999995,5918409.6613]}},{"type":"Feature","properties":{"OBJECTID":19,"STOPID":118,"STOPCODE":118,"STOPNAME":"Mt Eden Train Station","STOPDESC":null,"LOCATIONTYPE":"Stop","STOPLAT":-36.86795806,"STOPLON":174.75898917,"PARENTSTATION":null,"MODE":"Train"},"geometry":{"type":"Point","coordinates":[1756785.1146999998,5918331.1149]}},{"type":"Feature","properties":{"OBJECTID":20,"STOPID":119,"STOPCODE":119,"STOPNAME":"Baldwin Ave Train Station","STOPDESC":null,"LOCATIONTYPE":"Stop","STOPLAT":-36.87767778,"STOPLON":174.72045361,"PARENTSTATION":null,"MODE":"Train"},"geometry":{"type":"Point","coordinates":[1753330.5697,5917315.3588]}},{"type":"Feature","properties":{"OBJECTID":21,"STOPID":120,"STOPCODE":120,"STOPNAME":"Mt Albert Train Station","STOPDESC":null,"LOCATIONTYPE":"Stop","STOPLAT":-36.88477528,"STOPLON":174.71408944,"PARENTSTATION":null,"MODE":"Train"},"geometry":{"type":"Point","coordinates":[1752749.1911000004,5916538.1321]}},{"type":"Feature","properties":{"OBJECTID":22,"STOPID":121,"STOPCODE":121,"STOPNAME":"Sunnyvale Train Station","STOPDESC":null,"LOCATIONTYPE":"Stop","STOPLAT":-36.89686778,"STOPLON":174.63200889,"PARENTSTATION":null,"MODE":"Train"},"geometry":{"type":"Point","coordinates":[1745411.1552,5915324.7855]}},{"type":"Feature","properties":{"OBJECTID":23,"STOPID":122,"STOPCODE":122,"STOPNAME":"Kingsland Train Station","STOPDESC":null,"LOCATIONTYPE":"Stop","STOPLAT":-36.87250778,"STOPLON":174.74453,"PARENTSTATION":null,"MODE":"Train"},"geometry":{"type":"Point","coordinates":[1755486.9790000005,5917849.995]}},{"type":"Feature","properties":{"OBJECTID":24,"STOPID":123,"STOPCODE":123,"STOPNAME":"Fruitvale Rd Train Station","STOPDESC":null,"LOCATIONTYPE":"Stop","STOPLAT":-36.91066972,"STOPLON":174.66706694,"PARENTSTATION":null,"MODE":"Train"},"geometry":{"type":"Point","coordinates":[1748508.2951999996,5913739.5225]}},{"type":"Feature","properties":{"OBJECTID":25,"STOPID":124,"STOPCODE":124,"STOPNAME":"Glen Eden Train Station","STOPDESC":null,"LOCATIONTYPE":"Stop","STOPLAT":-36.91027417,"STOPLON":174.65317,"PARENTSTATION":null,"MODE":"Train"},"geometry":{"type":"Point","coordinates":[1747270.9692000002,5913804.9575]}},{"type":"Feature","properties":{"OBJECTID":26,"STOPID":125,"STOPCODE":125,"STOPNAME":"Henderson Train Station","STOPDESC":null,"LOCATIONTYPE":"Stop","STOPLAT":-36.88096528,"STOPLON":174.63091,"PARENTSTATION":null,"MODE":"Train"},"geometry":{"type":"Point","coordinates":[1745343.3908000002,5917090.7444]}},{"type":"Feature","properties":{"OBJECTID":27,"STOPID":126,"STOPCODE":126,"STOPNAME":"Sturges Rd Train Station","STOPDESC":null,"LOCATIONTYPE":"Stop","STOPLAT":-36.87346889,"STOPLON":174.62082417,"PARENTSTATION":null,"MODE":"Train"},"geometry":{"type":"Point","coordinates":[1744458.6163999997,5917937.7326]}},{"type":"Feature","properties":{"OBJECTID":28,"STOPID":127,"STOPCODE":127,"STOPNAME":"Swanson Train Station","STOPDESC":null,"LOCATIONTYPE":"Stop","STOPLAT":-36.86618056,"STOPLON":174.5763,"PARENTSTATION":null,"MODE":"Train"},"geometry":{"type":"Point","coordinates":[1740503.3908000002,5918812.7772]}},{"type":"Feature","properties":{"OBJECTID":29,"STOPID":128,"STOPCODE":128,"STOPNAME":"Ranui Train Station","STOPDESC":null,"LOCATIONTYPE":"Stop","STOPLAT":-36.86793667,"STOPLON":174.60333944,"PARENTSTATION":null,"MODE":"Train"},"geometry":{"type":"Point","coordinates":[1742910.4543000003,5918577.8133]}},{"type":"Feature","properties":{"OBJECTID":30,"STOPID":129,"STOPCODE":129,"STOPNAME":"New Lynn Train Station","STOPDESC":null,"LOCATIONTYPE":"Stop","STOPLAT":-36.909385,"STOPLON":174.68405,"PARENTSTATION":null,"MODE":"Train"},"geometry":{"type":"Point","coordinates":[1750023.8452000003,5913855.4749]}},{"type":"Feature","properties":{"OBJECTID":31,"STOPID":130,"STOPCODE":130,"STOPNAME":"Panmure Train Station","STOPDESC":null,"LOCATIONTYPE":"Stop","STOPLAT":-36.8977775,"STOPLON":174.84967,"PARENTSTATION":null,"MODE":"Train"},"geometry":{"type":"Point","coordinates":[1764804.4776,5914869.9453]}},{"type":"Feature","properties":{"OBJECTID":32,"STOPID":133,"STOPCODE":133,"STOPNAME":"Britomart Train Station","STOPDESC":null,"LOCATIONTYPE":"Stop","STOPLAT":-36.84429111,"STOPLON":174.76847972,"PARENTSTATION":null,"MODE":"Train"},"geometry":{"type":"Point","coordinates":[1757679.7455000002,5920941.2264]}},{"type":"Feature","properties":{"OBJECTID":33,"STOPID":134,"STOPCODE":134,"STOPNAME":"Pukekohe Train Station","STOPDESC":null,"LOCATIONTYPE":"Stop","STOPLAT":-37.20331083,"STOPLON":174.91015972,"PARENTSTATION":null,"MODE":"Train"},"geometry":{"type":"Point","coordinates":[1769513.4349999996,5880864.4217]}},{"type":"Feature","properties":{"OBJECTID":34,"STOPID":140,"STOPCODE":140,"STOPNAME":"Parnell Train Station","STOPDESC":null,"LOCATIONTYPE":"Stop","STOPLAT":-36.85472833,"STOPLON":174.77739917,"PARENTSTATION":null,"MODE":"Train"},"geometry":{"type":"Point","coordinates":[1758453.5361,5919768.5007]}},{"type":"Feature","properties":{"OBJECTID":35,"STOPID":244,"STOPCODE":244,"STOPNAME":"Sylvia Park Train Station","STOPDESC":null,"LOCATIONTYPE":"Stop","STOPLAT":-36.91463667,"STOPLON":174.8426,"PARENTSTATION":null,"MODE":"Train"},"geometry":{"type":"Point","coordinates":[1764138.3482999995,5913011.6522]}},{"type":"Feature","properties":{"OBJECTID":36,"STOPID":277,"STOPCODE":277,"STOPNAME":"Grafton Train Station","STOPDESC":null,"LOCATIONTYPE":"Stop","STOPLAT":-36.86561194,"STOPLON":174.76984,"PARENTSTATION":null,"MODE":"Train"},"geometry":{"type":"Point","coordinates":[1757757.2010000004,5918573.529]}},{"type":"Feature","properties":{"OBJECTID":37,"STOPID":605,"STOPCODE":605,"STOPNAME":"Onehunga Train Station","STOPDESC":null,"LOCATIONTYPE":"Stop","STOPLAT":-36.92539389,"STOPLON":174.7868,"PARENTSTATION":null,"MODE":"Train"},"geometry":{"type":"Point","coordinates":[1759144.8733,5911912.7704]}},{"type":"Feature","properties":{"OBJECTID":38,"STOPID":606,"STOPCODE":606,"STOPNAME":"Te Papapa Train Station","STOPDESC":null,"LOCATIONTYPE":"Stop","STOPLAT":-36.92013083,"STOPLON":174.80137,"PARENTSTATION":null,"MODE":"Train"},"geometry":{"type":"Point","coordinates":[1760453.7309999997,5912472.2691]}},{"type":"Feature","properties":{"OBJECTID":39,"STOPID":9218,"STOPCODE":9218,"STOPNAME":"Manukau Train Station","STOPDESC":null,"LOCATIONTYPE":"Stop","STOPLAT":-36.99388,"STOPLON":174.87739667,"PARENTSTATION":null,"MODE":"Train"},"geometry":{"type":"Point","coordinates":[1767065.0833,5904159.214]}}]}